[{"name":"Paris","insee":"75056","lat":48.8566,"lon":2.3522,"pm2":9500,"y1":-3,"rdt":3.4,"enc":true,"abnb":true},{"name":"Lyon","insee":"69123","lat":45.764,"lon":4.8357,"pm2":4700,"y1":-4,"rdt":4.2,"enc":true,"abnb":true},{"name":"Marseille","insee":"13055","lat":43.2965,"lon":5.3698,"pm2":3500,"y1":3,"rdt":5.6,"enc":false,"abnb":true},{"name":"Toulouse","insee":"31555","lat":43.6047,"lon":1.4442,"pm2":3600,"y1":-1,"rdt":4.8,"enc":false,"abnb":true},{"name":"Nice","insee":"06088","lat":43.7102,"lon":7.262,"pm2":5000,"y1":1.5,"rdt":4.3,"enc":false,"abnb":true},{"name":"Nantes","insee":"44109","lat":47.2184,"lon":-1.5536,"pm2":3900,"y1":-3,"rdt":4.5,"enc":false,"abnb":true},{"name":"Montpellier","insee":"34172","lat":43.6108,"lon":3.8767,"pm2":3600,"y1":1,"rdt":5,"enc":true,"abnb":true},{"name":"Strasbourg","insee":"67482","lat":48.5734,"lon":7.7521,"pm2":3600,"y1":-1.5,"rdt":4.6,"enc":false,"abnb":true},{"name":"Bordeaux","insee":"33063","lat":44.8378,"lon":-0.5792,"pm2":4700,"y1":-5,"rdt":4.2,"enc":true,"abnb":true},{"name":"Lille","insee":"59350","lat":50.6292,"lon":3.0573,"pm2":3600,"y1":-3,"rdt":5,"enc":true,"abnb":true},{"name":"Rennes","insee":"35238","lat":48.1173,"lon":-1.6778,"pm2":3900,"y1":-2,"rdt":4.6,"enc":false,"abnb":true},{"name":"Reims","insee":"51454","lat":49.2583,"lon":4.0317,"pm2":2700,"y1":-1,"rdt":5.6,"enc":false,"abnb":false},{"name":"Saint-Étienne","insee":"42218","lat":45.4397,"lon":4.3872,"pm2":1500,"y1":2,"rdt":8.5,"enc":false,"abnb":false},{"name":"Le Havre","insee":"76351","lat":49.4944,"lon":0.1079,"pm2":2300,"y1":2,"rdt":6.5,"enc":false,"abnb":false},{"name":"Toulon","insee":"83137","lat":43.1242,"lon":5.928,"pm2":3300,"y1":3,"rdt":5.4,"enc":false,"abnb":true},{"name":"Grenoble","insee":"38185","lat":45.1885,"lon":5.7245,"pm2":2700,"y1":-2,"rdt":5.6,"enc":false,"abnb":true},{"name":"Dijon","insee":"21231","lat":47.322,"lon":5.0415,"pm2":2900,"y1":0,"rdt":5.2,"enc":false,"abnb":false},{"name":"Angers","insee":"49007","lat":47.4784,"lon":-0.5632,"pm2":3300,"y1":-3,"rdt":4.8,"enc":false,"abnb":false},{"name":"Nîmes","insee":"30189","lat":43.8367,"lon":4.3601,"pm2":2300,"y1":1,"rdt":6.2,"enc":false,"abnb":false},{"name":"Villeurbanne","insee":"69266","lat":45.7719,"lon":4.8902,"pm2":4200,"y1":-3,"rdt":4.4,"enc":true,"abnb":true},{"name":"Clermont-Ferrand","insee":"63113","lat":45.7772,"lon":3.087,"pm2":2500,"y1":0,"rdt":5.6,"enc":false,"abnb":false},{"name":"Le Mans","insee":"72181","lat":48.0061,"lon":0.1996,"pm2":2100,"y1":1,"rdt":6.8,"enc":false,"abnb":false},{"name":"Aix-en-Provence","insee":"13001","lat":43.5297,"lon":5.4474,"pm2":5200,"y1":0,"rdt":4,"enc":false,"abnb":true},{"name":"Brest","insee":"29019","lat":48.3904,"lon":-4.4861,"pm2":2300,"y1":2,"rdt":6,"enc":false,"abnb":false},{"name":"Tours","insee":"37261","lat":47.3941,"lon":0.6848,"pm2":3100,"y1":-1,"rdt":5,"enc":false,"abnb":false},{"name":"Limoges","insee":"87085","lat":45.8336,"lon":1.2611,"pm2":1700,"y1":1,"rdt":7.5,"enc":false,"abnb":false},{"name":"Amiens","insee":"80021","lat":49.8941,"lon":2.2958,"pm2":2600,"y1":0,"rdt":5.8,"enc":false,"abnb":false},{"name":"Metz","insee":"57463","lat":49.1193,"lon":6.1757,"pm2":2500,"y1":0,"rdt":5.6,"enc":false,"abnb":false},{"name":"Besançon","insee":"25056","lat":47.2378,"lon":6.0241,"pm2":2500,"y1":-1,"rdt":5.6,"enc":false,"abnb":false},{"name":"Perpignan","insee":"66136","lat":42.6887,"lon":2.8948,"pm2":2100,"y1":1.5,"rdt":6.6,"enc":false,"abnb":false},{"name":"Orléans","insee":"45234","lat":47.9029,"lon":1.9093,"pm2":2900,"y1":-1,"rdt":5.2,"enc":false,"abnb":false},{"name":"Rouen","insee":"76540","lat":49.4432,"lon":1.0993,"pm2":2800,"y1":-1.5,"rdt":5.4,"enc":false,"abnb":false},{"name":"Mulhouse","insee":"68224","lat":47.7508,"lon":7.3359,"pm2":1600,"y1":2,"rdt":8.8,"enc":false,"abnb":false},{"name":"Caen","insee":"14118","lat":49.1829,"lon":-0.3707,"pm2":3000,"y1":-1,"rdt":5.2,"enc":false,"abnb":false},{"name":"Nancy","insee":"54395","lat":48.6921,"lon":6.1844,"pm2":2600,"y1":0,"rdt":5.6,"enc":false,"abnb":false},{"name":"Annecy","insee":"74010","lat":45.8992,"lon":6.1294,"pm2":5500,"y1":1,"rdt":3.8,"enc":false,"abnb":true},{"name":"Biarritz","insee":"64122","lat":43.4832,"lon":-1.5586,"pm2":7500,"y1":2,"rdt":3.5,"enc":true,"abnb":true},{"name":"La Rochelle","insee":"17300","lat":46.1603,"lon":-1.1511,"pm2":4600,"y1":1,"rdt":4.4,"enc":false,"abnb":true},{"name":"Bayonne","insee":"64102","lat":43.4929,"lon":-1.4748,"pm2":4200,"y1":2,"rdt":4.6,"enc":true,"abnb":true},{"name":"Pau","insee":"64445","lat":43.2951,"lon":-0.3708,"pm2":2200,"y1":0,"rdt":6,"enc":false,"abnb":false},{"name":"Avignon","insee":"84007","lat":43.9493,"lon":4.8055,"pm2":2400,"y1":1,"rdt":6,"enc":false,"abnb":true},{"name":"Cannes","insee":"06029","lat":43.5528,"lon":7.0174,"pm2":6500,"y1":1,"rdt":3.8,"enc":false,"abnb":true},{"name":"Antibes","insee":"06004","lat":43.5808,"lon":7.1239,"pm2":5500,"y1":1,"rdt":4,"enc":false,"abnb":true},{"name":"Menton","insee":"06083","lat":43.7765,"lon":7.5031,"pm2":5200,"y1":1.5,"rdt":4,"enc":false,"abnb":true},{"name":"Saint-Tropez","insee":"83119","lat":43.2716,"lon":6.6407,"pm2":13000,"y1":2,"rdt":2.8,"enc":false,"abnb":true},{"name":"Arcachon","insee":"33009","lat":44.6588,"lon":-1.1683,"pm2":6500,"y1":1,"rdt":3.6,"enc":false,"abnb":true},{"name":"Ajaccio","insee":"2A004","lat":41.9192,"lon":8.7386,"pm2":3300,"y1":2,"rdt":5,"enc":false,"abnb":true},{"name":"Chambéry","insee":"73065","lat":45.5646,"lon":5.9178,"pm2":3000,"y1":0,"rdt":5.2,"enc":false,"abnb":false},{"name":"Colmar","insee":"68066","lat":48.0794,"lon":7.3585,"pm2":2700,"y1":1,"rdt":5.4,"enc":false,"abnb":false},{"name":"Vannes","insee":"56260","lat":47.6582,"lon":-2.7608,"pm2":3900,"y1":0,"rdt":4.6,"enc":false,"abnb":true},{"name":"Saint-Malo","insee":"35288","lat":48.6493,"lon":-2.0257,"pm2":4700,"y1":1,"rdt":4.2,"enc":false,"abnb":true},{"name":"Deauville","insee":"14220","lat":49.36,"lon":0.0755,"pm2":6800,"y1":1,"rdt":3.5,"enc":false,"abnb":true},{"name":"Le Touquet","insee":"62826","lat":50.5241,"lon":1.5883,"pm2":6500,"y1":1,"rdt":3.4,"enc":false,"abnb":true}]