[{"insee":"75101","name":"Paris 1er","lat":48.8626,"lon":2.3363},{"insee":"75102","name":"Paris 2e","lat":48.8679,"lon":2.3412},{"insee":"75103","name":"Paris 3e","lat":48.863,"lon":2.3625},{"insee":"75104","name":"Paris 4e","lat":48.8544,"lon":2.3573},{"insee":"75105","name":"Paris 5e","lat":48.8448,"lon":2.3501},{"insee":"75106","name":"Paris 6e","lat":48.849,"lon":2.3327},{"insee":"75107","name":"Paris 7e","lat":48.8561,"lon":2.3125},{"insee":"75108","name":"Paris 8e","lat":48.8726,"lon":2.3125},{"insee":"75109","name":"Paris 9e","lat":48.8768,"lon":2.339},{"insee":"75110","name":"Paris 10e","lat":48.876,"lon":2.36},{"insee":"75111","name":"Paris 11e","lat":48.858,"lon":2.3799},{"insee":"75112","name":"Paris 12e","lat":48.835,"lon":2.421},{"insee":"75113","name":"Paris 13e","lat":48.8283,"lon":2.355},{"insee":"75114","name":"Paris 14e","lat":48.829,"lon":2.326},{"insee":"75115","name":"Paris 15e","lat":48.8417,"lon":2.2986},{"insee":"75116","name":"Paris 16e","lat":48.8637,"lon":2.2769},{"insee":"75117","name":"Paris 17e","lat":48.887,"lon":2.3075},{"insee":"75118","name":"Paris 18e","lat":48.8927,"lon":2.3444},{"insee":"75119","name":"Paris 19e","lat":48.887,"lon":2.382},{"insee":"75120","name":"Paris 20e","lat":48.8634,"lon":2.401},{"insee":"92012","name":"Boulogne-Billancourt","lat":48.835,"lon":2.24},{"insee":"92050","name":"Nanterre","lat":48.892,"lon":2.206},{"insee":"92051","name":"Neuilly-sur-Seine","lat":48.885,"lon":2.269},{"insee":"92026","name":"Courbevoie","lat":48.897,"lon":2.256},{"insee":"92025","name":"Colombes","lat":48.923,"lon":2.254},{"insee":"92004","name":"Asnières-sur-Seine","lat":48.911,"lon":2.285},{"insee":"92063","name":"Rueil-Malmaison","lat":48.877,"lon":2.18},{"insee":"92044","name":"Levallois-Perret","lat":48.893,"lon":2.287},{"insee":"92040","name":"Issy-les-Moulineaux","lat":48.824,"lon":2.273},{"insee":"92002","name":"Antony","lat":48.754,"lon":2.297},{"insee":"92049","name":"Montrouge","lat":48.818,"lon":2.314},{"insee":"92062","name":"Puteaux","lat":48.884,"lon":2.239},{"insee":"92048","name":"Meudon","lat":48.814,"lon":2.238},{"insee":"93066","name":"Saint-Denis","lat":48.936,"lon":2.357},{"insee":"93048","name":"Montreuil","lat":48.863,"lon":2.448},{"insee":"93001","name":"Aubervilliers","lat":48.916,"lon":2.383},{"insee":"93005","name":"Aulnay-sous-Bois","lat":48.934,"lon":2.494},{"insee":"93029","name":"Drancy","lat":48.927,"lon":2.445},{"insee":"93051","name":"Noisy-le-Grand","lat":48.848,"lon":2.553},{"insee":"93055","name":"Pantin","lat":48.897,"lon":2.409},{"insee":"93070","name":"Saint-Ouen-sur-Seine","lat":48.911,"lon":2.333},{"insee":"93064","name":"Rosny-sous-Bois","lat":48.871,"lon":2.483},{"insee":"94028","name":"Créteil","lat":48.79,"lon":2.455},{"insee":"94081","name":"Vitry-sur-Seine","lat":48.787,"lon":2.392},{"insee":"94017","name":"Champigny-sur-Marne","lat":48.817,"lon":2.515},{"insee":"94068","name":"Saint-Maur-des-Fossés","lat":48.8,"lon":2.493},{"insee":"94080","name":"Vincennes","lat":48.848,"lon":2.437},{"insee":"94041","name":"Ivry-sur-Seine","lat":48.813,"lon":2.388},{"insee":"94046","name":"Maisons-Alfort","lat":48.805,"lon":2.439},{"insee":"94076","name":"Villejuif","lat":48.794,"lon":2.359},{"insee":"94052","name":"Nogent-sur-Marne","lat":48.836,"lon":2.482},{"insee":"78646","name":"Versailles","lat":48.801,"lon":2.13},{"insee":"78551","name":"Saint-Germain-en-Laye","lat":48.899,"lon":2.094},{"insee":"78586","name":"Sartrouville","lat":48.939,"lon":2.163},{"insee":"78361","name":"Mantes-la-Jolie","lat":48.99,"lon":1.717},{"insee":"78498","name":"Poissy","lat":48.929,"lon":2.046},{"insee":"91228","name":"Évry-Courcouronnes","lat":48.629,"lon":2.441},{"insee":"91377","name":"Massy","lat":48.73,"lon":2.283},{"insee":"91174","name":"Corbeil-Essonnes","lat":48.614,"lon":2.482},{"insee":"91589","name":"Savigny-sur-Orge","lat":48.679,"lon":2.345},{"insee":"91477","name":"Palaiseau","lat":48.715,"lon":2.246},{"insee":"95018","name":"Argenteuil","lat":48.947,"lon":2.247},{"insee":"95127","name":"Cergy","lat":49.036,"lon":2.078},{"insee":"95585","name":"Sarcelles","lat":48.996,"lon":2.378},{"insee":"95500","name":"Pontoise","lat":49.051,"lon":2.101},{"insee":"77284","name":"Meaux","lat":48.96,"lon":2.878},{"insee":"77108","name":"Chelles","lat":48.883,"lon":2.592},{"insee":"77288","name":"Melun","lat":48.539,"lon":2.66},{"insee":"77186","name":"Fontainebleau","lat":48.409,"lon":2.702}]